명칭,주소,위도,경도,개요,영업시간,쉬는날,상세정보,카테고리
남대문 종합상가,서울특별시 중구 남대문시장4길 21 (남창동),37.5592134153,126.9776518607,남대문 상가는 역사가 깊은 상가인만큼 수많은 품목을 자랑하기도 하지만 그보다는 다른 곳에서 구하기 힘든 물품들을 찾아볼 수 있다는 점에서 사람들에게 유명한 곳이다. 남대문 시장과 가까운 위치에 있어 전통적인 재래시장과 현대적인 쇼핑몰의 장점을 동시에 즐길 수 있다. 헤아리기도 힘든 수많은 품목의 상품들을 판매하고 있으며 특히 카메라 부분에서는 쉽사리 구하기 힘든 부품들을 구해볼 수 있고 전국의 각종 특산물들도 찾아볼 수 있다.,점포별 상이함,점포별 상이함,,쇼핑
부르뎅 아동복 (Burdeng),서울특별시 중구 남대문시장8길 14,37.5599161253,126.9784156601,부르뎅 아동복 상가는 각종 성인의류 잡화 매장과 아동용품 전문매장으로 그중 아동용품전문상가로 유명하다. 우리나라 전국의 거의 모든 아동용품의 유통지이고 지방 소매상들의 새벽시장이다. 부르뎅 아동복은 아이들의 성장과 변화에 맞춰 다양한 사이즈와 스타일을 제공하며 다양하고 좋은 품질의 아동용품을 구입할 수 있는 곳이다. 유아용품부터 아동용품까지 각종 종류의 용품들을 도매 또는 소매로 구입할 수 있다.,주간 09:30~17:00 야간 22:00~05:00,주간 매주 일요일 야간 매주 금요일~토요일,,쇼핑
청자 수입상가,서울특별시 중구 남대문시장4길 29 (남창동),37.5588356763,126.9773491223,청자수입상가에서는 국내에서는 쉽게 볼 수 없는 국외의 주방용품들과 생활잡화 의류 잡화들을 판매하는 매장들로 구성되어 있다. 지하에서는 주방용품들과 여성 의류 액세서리 등을 만날 수 있고 1층에서는 아동복과 속옷 생활 잡화들을 쇼핑할 수 있다. 쇼핑 후 2층과 3층에 마련된 휴게실과 커피숍 등에서 쇼핑의 피로를 풀 수도 있고 도심 속에서 여유를 즐겨 볼 수도 있다.,점포별 상이함,점포별 상이함,구입방법안내:도 소매 구입가능 전화이용 택배구입 가능 직접 방문 구입 가능 장애인 편의시설:장애인 안내시설,쇼핑
퀸프라자,서울특별시 중구 남대문시장6길 29,37.5590467765,126.9781046023,퀸프라자는 모든 연령대의 남녀노소 누구나 취향에 맞는 의류를 구입하기 좋은 곳이다. 그리고 다양한 잡화들도 많이 있어 구경하는 재미가 있다. 수많은 매장들로 이루어져 있는 퀸프라자에는 가족단위로 쇼핑을 즐기는 관광객들이 많다. 더욱이 3층에 위치한 명품점에서는 각종 명품 의류와 액세서리 등을 만나 볼 수 있다.,점포별 상이,연중무휴,장애인 편의시설:장애인 안내시설 구입방법안내:도 소매 구입가능 전화이용 택배구입 가능 직접 방문 구입 가능,쇼핑
롯데백화점 본점,서울특별시 중구 남대문로 81,37.5647822864,126.9817485525,,10:30 20:00,명절,,쇼핑
서울공예사,서울특별시 종로구 인사동길 27 1 1층(인사동4거리),37.5731758308,126.9859645973,,10:00~20:00,명절,,쇼핑
자라 롯데 서울역점,서울특별시 용산구 청파로 378,37.5532806211,126.9692583497,,10:00 22:00,명절,: :,쇼핑
광장시장 한복매장,서울특별시 종로구 창경궁로 88 (예지동),37.5702347233,126.9980663554,광장시장의 한복매장은 전통 한복을 전문으로 취급하는 곳이다. 이곳은 다양한 디자인의 한복을 제공하여 고객의 취향에 맞는 선택을 가능하게 한다. 맞춤형 한복부터 트렌디한 생활 한복까지 다양한 디자인과 색상의 한복을 만나볼 수 있다. 품질 좋은 원단과 정성스러운 손길로 완성된 한복을 합리적인 가격에 제공한다. 또한 맞춤 제작 서비스도 있어 고객의 취향에 따라 개성을 담은 한복을 제작할 수 있다. 오랜 전통을 자랑하는 장인들의 기술과 개성이 살아 있는 디자인으로 외국인 관광객과 젊은 세대 모두에게 큰 인기를 끌고 있는 곳이다.,09:00~18:00 점포 별로 상이함,연중무휴 점포 별로 상이함,,쇼핑
노스비치 (North Beach),서울특별시 용산구 이태원로 171,37.5346221062,126.9931372569,1987년 이태원 매장 개점 후 가죽 브랜드로써는 처음으로 백화점 매장을 오픈했을 정도로 꾸준히 관심받고 있는 매장이다. 이미 여러 차례 외국인 전용매장으로 잡지나 방송매체에서 소개되었으며 이태원의 대표적인 가죽 상품 매장으로 손꼽히고 있다. 특히 여성 가죽 모피 제품이 각광받고 있다.,연중무휴,1층 여성 전용 가죽제품 2층 남성 의류,,쇼핑
맥스타일 (maxtyle),서울특별시 중구 마장로 3,37.5688045577,127.0105235943,맥스타일(maxtyle)은 과거 흥인·덕운 시장을 리모델링한 지하 7층 지상 8층 규모의 전문 패션몰이다. maxtyle은 ‘maximum style’의 줄임말로써 고객에게 최대의 패션 만족과 가치를 제공하고 패션과 문화를 창조하며 선도하는 감성 문화의 리더가 되는 복합적 문화공간을 의미한다. 청계천과 동대문디자인플라자&파크(DDP) 동대문 도매·소매시장이 교차하는 패션의 메카 동대문에 위치하고 있으며 총 10개 층의 판매시설은 의류 및 패션잡화 생활용품 등 각 층마다 각기 다른 콘셉트를 가진 10개의 쇼핑몰로 구성되어 있다. 주변에는 서울시의 랜드마크인 동대문디자인플라자&파크(DDP)와 청계천 등 휴식 역사 문화 쇼핑공간이 한데 어우러져 있다.,점포별 상이,점포별 상이,,쇼핑
이태원시장,서울특별시 용산구 이태원로14길 6,37.533811033,126.9900264524,이태원 시장은 대한민국 서울특별시 용산구 이태원동에 위치한 대표적인 시장 중 하나이다. 이태원은 다양한 문화와 다국적인 분위기가 어우러진 지역으로 유명하며 이곳의 시장도 그 다양성을 반영하고 있다. 이태원 시장에는 전통적인 한국의 소품부터 현대적이고 유니크한 디자인의 제품까지 다양한 상점들이 즐비해 있어 의류 액세서리 가구 공예품 등을 살펴보며 독특한 제품을 찾을 수 있으며 이태원은 다양한 국적의 사람들이 모여 사는 지역이기 때문에 다양한 나라의 음식을 즐길 수 있는 레스토랑과 카페가 많아 이색적인 체험이 가능하다.,점포마다 상이,점포마다 상이,제조자 이름: 입점브랜드:,쇼핑
센트럴시티,서울특별시 서초구 신반포로 176 (반포동),37.505372917,127.0038037796,센트럴시티는 서울시 강남구 반포동에 위치해 있다. 신세계 백화점 메리어트 호텔을 비롯하여 휴식공간인 센트럴파크가 자리하고 있고 예식장과 대형 행사를 치를 수 있는 밀레니엄 홀과 은행 병원 증권 우체국 등의 편의시설 및 대형주차 공간도 갖추어져 있어 복합문화시설로 한국의 건축 문화를 한 차원 높이는 수준의 복합 건물로 평가되고 있다. 또한 센트럴시티 안에는 고품격 명품 쇼핑몰 마르퀴스 플라자 다양한 장르의 음반을 취급하는 신나라 레코드 초대형 문고센터 영풍문고 세계적으로 대 유행인 선진국형 멀티플렉스 센트럴 6 시네마와 시뮬레이션을 비롯한 첨단 오락시설을 갖춘 도심형 테마파크 등이 자리 잡고 있다.,매장에 따라 다름,매장에 따라 다름,,쇼핑
디아프바인,서울특별시 강남구 언주로172길 15,37.5278375378,127.0351669551,2002년 가을에 디자이너 김승래에 의해 설립되었으며 당시 스트리트 씬의 미개척지였던 국내에서 최초로 론칭된 브랜드이다. 현재에 이르기까지 미국 유럽 일본에서 생산되는 품질 좋은 원단 및 각종 부자재등을 과감히 도입하며 품질향상을 위해 끊임없이 노력하는 도전 정신과 퀄리티로 인정받으며 국내신을 리드해 가고 있다. 특히 국내 레더재킷 장르에서는 전문성과 다양성으로 타의 추종을 불허하며 월드와이드 전개를 목표로 다가오는 또 다른 10년을 위해 나아가고 있다.,16:00~19:30 토요일은 오픈시간이 격주로 상이하므로 전화 문의 바람,매주 일요일,입점브랜드:자사 브랜드,쇼핑
금강제화 명동본점,서울특별시 중구 명동8길 30 (명동2가),37.5624659415,126.984681684,금강제화는 제화뿐 아니라 스포츠화 캐주얼슈즈 및 패션 액세서리 등을 생산하는 패션 브랜드로 전국에 많은 대리점을 보유하고 있다. 그중 금강제화 명동본점은 명동거리 중심가에 자리 잡고 있어 외국 관광객들이 많이 방문하는 매장이다. 이 매장의 경우 Regal(리갈) 브랜드의 남성 정장화 여성 정장화 핸드백 지갑 액세서리 등이 인기가 많다. 또한 신발 사이즈가 너무 크거나 작아 제품 구매에 애로사항이 있는 고객들을 위해 빅 앤 스몰 매장이 구비되어 있으며 고객의 별도 주문 제작도 가능하다.,월요일~목요일 10:30~20:00 금요일~일요일 10:30~20:30,연중무휴,제조자 이름: 입점브랜드: 장애인 편의시설:,쇼핑
프리스비 (Frisbee) 건대점,서울특별시 용산구 한강대로 283 8 (갈월동),37.5435845686,126.9716472947,프리스비 건대점은 국내 최대 Apple 프리미엄 리셀러 매장이다. 최대 규모와 전문성을 자랑하는 No.1 Apple 프리미엄 매장으로 애플의 최신 제품을 가장 먼저 만날 수 있는 체험형 스토어의 선두주자이다. 프리스비는 Apple에서 공식으로 인증을 받은 유통 채널이다. 오프라인의 경우 공식인증 리셀러 프리미엄 리셀러 숍으로 유형이 나뉜다. 프리스비 건대점은 Apple로부터 Apple 해결 방법 서비스 및 지원 위주로 우수한 고객 서비스를 제공하고 있다는 점을 인정받은 매장이다. 프리스비 건대점에서는 아이폰 맥북 아이패드뿐만 아니라 다양한 액세서리를 직접 구매하고 체험해 볼 수 있다. 이 밖에도 좀 더 Apple의 신상품을 빠르게 만나볼 수 있는 사전예약 이벤트를 통해 가격과 서비스 측면에서 혜택을 얻을 수 있다.,11:00~21:00 / 일요일 11:00~20:30,명절 휴무,제조자 이름: 입점브랜드:Apple(애플) 장애인 편의시설:건물 내 1층 장애인 화장실,쇼핑
KT&G 상상마당 디자인스퀘어,서울특별시 마포구 어울마당로 65 (서교동),37.5510133552,126.9210794712,KT&G 상상마당은 영화관 공연장을 비롯한 디자인스퀘어 갤러리 아카데미 사진암실과 카페가 있어 예술가들에게는 문화예술 창작 활동 지원을 일반인들에게는 문화 향유 기회를 제공하고 있는 복합문화공간이다. 홍대의 가장 중요한 랜드마크가 된 상상마당은 사회공헌 문화 사업이 이루어지는 공간이다. 영화 음악 디자인 등의 전방위에 걸쳐 왕성하게 활동을 펼쳐 나가는 상상마당의 대문이라 할 수 있다. 디자인스퀘어는 KT&G 상상마당 1층에 자리 잡고 있으며 상상력이 돋보이는 디자인 제품의 전시와 판매 공간으로 이루어져 있다. 디자인스퀘어의 메인섹션은 상상력들이 돋보이는 디자인 제품의 전시와 판매 공간으로 이루어져 있다. 이곳의 제품들은 직접 디자인하여 다른 곳에서는 볼 수 없는 상상마당만의 특별한 디자인으로 내국인들과 외국인들에게 사랑받고 있다. 최근에는 해외 관광객들의 쇼핑메카지역으로 떠오르면서 기념품으로 구입하기 좋은 작은 연필 명함첩 다이어리 노트 등의 문구류 및 팬시용품들이 인기를 모으고 있다.,11:00~21:00,연중무휴,,쇼핑
영풍문고 종로점,서울특별시 종로구 청계천로 41 지하 1층,37.5696567271,126.9821594881,영풍문고는 1992년 서울 종각에 위치한 영풍빌딩 내에 국내 최대 규모의 종로점을 시작으로 현재 서울시내와 지방 지역을 대표하는 서점이다. 다양한 도서와 편안한 쇼핑 공간을 제공한다. 최신 베스트셀러부터 고전 전공서적 아동서적 외서 등 다양한 분야의 책을 한자리에서 만날 수 있다. 또한 도서뿐만 아니라 문구류 선물용품 음반 등 다양한 상품을 함께 취급하여 방문객들이 여러 가지를 한 번에 구입할 수 있다. 낭독회 사인회 강좌 등 문화행사나 강연 등도 진행되어 책을 사랑하는 이들에게는 더욱 매력적인 장소이다. 종로의 중심에 위치해 있어 접근성도 뛰어나며 많은 사람들이 찾는 문화 명소로 자리 잡고 있다.,10:00~22:00,연중무휴,제조자 이름: 장애인 편의시설:,쇼핑
서울 광희시장,서울특별시 중구 마장로1길 21,37.5686851518,127.0119012497,서울 광희시장은 서울특별시 중구에 위치한 전통 재래시장으로 다양한 생활용품과 먹거리를 제공하는 곳이다. 생산자와 소비자를 직접 연결하는 유통시스템의 도입으로 최신유행의 제품을 저렴한 가격에 소비자에게 공급하는 도시에 소비자의 요구를 만족시켜 준다. 국내에서 제작한 의류부터 수입의류. 각종 부자재 완제품까지 모든 최고의 상품을 저렴한 가격으로 서비스하고 있다.,점포별 상이함,점포별 상이함,,쇼핑
종로6가 대학천 책방거리,서울특별시 종로구 종로 258,37.5706514924,127.0064683558,대학천 책방거리는 새 책을 싸게 살 수 있는 오래된 골목으로 전국의 출판사와 소규모 서점들을 연결하는 중간 거래처였다. 일반인들에게 널리 알려진 청계천 헌책방거리와는 달리 대학천 책방거리는 많이 알려지지는 않았지만 전국의 1천 5백여 개 출판사와 3천여 개 서점을 연결해 주는 연결다리로 크고 작은 서점의 책들도 거의 이곳 총판을 거치게 된다. 전집류 단행본 잡지류가 주로 유통되고 일부 점포에서는 무협지와 만화책만 전문으로 파는 점포도 있다. 호황기였던 1980년대에는 80개가 넘는 가게들이 있었고 인터넷과 다양한 유통경로의 발달로 가게가 많이 없어졌으나 보유한 중고 책 수량이 많이 책 고르는 재미가 있다.,점포별 상이함,점포별 상이함,제조자 이름: 입점브랜드:,쇼핑
견지동 불교용품거리,서울특별시 종로구 우정국로 55,37.574478386,126.9819927,견지동 불교용품거리는 대한불교 조계종의 총본산인 조계사 입구에서 형성된 후 공평사거리와 인사동 일부까지 30여 개의 불교서적 및 불교용품 전문 판매점이 몰려있는 곳이다. 이곳에서 불교 서적 목탁 염주 승복 불상 향 등의 불교용품을 살 수 있다. 견지동 불교용품거리는 시민들의 자발적인 발굴과 보존을 원칙으로 시민 전문가 등이 제안해 사실 검증과 미래유산보존위원회의 심의를 거친 후 선정된 서울미래유산이다.,가게마다 상이,가게마다 상이,제조자 이름: 입점브랜드:,쇼핑
청오가방도매상가,서울특별시 종로구 청계천로 229,37.5701348234,127.0029909094,청오가방도매상가로 불리는 이곳은 행정구역상 종로 5가에 속하며 주변 가방상가와 함께 청계천 가방상가로 통칭한다. 1960년대부터 종로 5가와 청계천 주변에 들어서기 시작하여 번성했던 상가들이 청오빌딩으로 이전해 오면서 1 2층 매장에는 의류상가가 지하층과 3 4층은 가방 부속품 도매 상가가 입점했다. 청오가방상가는 자체 공장에서 제작한 고유모델의 가방을 전국의 소매상에게 도매할 뿐만 아니라 일부 점포들은 백화점에 가방을 납품하기도 한다. 여러 가방을 함께 팔기도 하지만 핸드백 서류 가방 여행 가방 학생 가방 등 한두 가지 품목 위주로 파는 전문점이 많다. 유치원 가방 학원 가방 전문점뿐만 아니라 천으로 만든 도시락 가방 등 소품 전문점도 있다.,전화 문의,전화 문의,,쇼핑
남대문 액세사리상가,서울특별시 중구 남대문시장4길 21,37.5591939725,126.9776157542,남대문 시장에는 옷과 수입품 못지않게 단일품목으로 규모가 큰 액세서리 상가가 있다. 퇴계로변 남대문시장 쪽에 연세 상가 영창 장안 원랭땅 남문 렝땅 유성상가 실 로암상가 등이 몰려 있다. 남대문로 시장쪽에 우주상가 삼호마게트가 있다. 이들 상가에서는 약 2천여곳의 악세 사리 전문점이 들어서 있는데 이는 국내에서 가장 큰 규모이다. 한 품목만 전문으로 파는 점포가 많으며 금 은도금 천연소재 플라스틱등 머리핀에서 발 목걸이까지 신체 및 의류 모자 등에 사용되는 모든 종류를 직접 제조판매함에 따 라 국내는 물론 세계시장에도 전문악세사리 상가로 유명하다.,점포별 상이함,점포별 상이함,,쇼핑
노량진수산물도매시장,서울특별시 동작구 노들로 674,37.5148539488,126.9368207234,노량진수산시장은 1927년에 지금의 서울역 옆 의주로에서 태동하여 90여 년의 긴 역사를 자랑하는 우리나라 내륙지 최대의 수산물 전문 도매시장이다. 1971년 노량진에 도매시장을 신축하였고 2002년 어민 소득증대와 수산업 발전을 도모하는 수협이 시장을 인수하여 노량진수산시장 현대화사업을 진행하면서 유통과 문화가 공존하는 우리나라 대표 수산물 도매시장으로 재탄생하였다. 수도권 거래량의 50%를 점유하는 노량진수산물도매시장은 하루 거래되는 수산물 물량이 약 250~300톤가량이다. 수산물 시세는 그날 들어오는 물량에 따라 값이 결정되기 때문에 홈페이지를 통해 경매시세를 확인하는 것이 좋고 소매시세는 경매시세보다 10~20% 정도 높다. 도매와 소매가 혼재되어 있는 노량진수산시장에서 새벽 1시부터 시작되는 경매는 많은 볼거리를 제공한다. 특히 3시에 진행되는 활어경매는 새벽시장의 활기찬 모습을 엿볼 수 있어 삶의 활력을 불러일으킨다.,[경매] 패류뷰류 01:00~ 고급선어 01:30~ 대중부류 00:00~ 고급활어 03:00~ 냉동부류 03:00~ [판매(도소매)] 고급 00:00~24:00 대중 01:30~22:00 냉동 03:30~22:00 패류 01:00~22:00 건어 23:00~19:00 젓갈 03:00~19:00,[경매] 매주 일요일 / 1월 1일 / 설·추석 연휴 [판매(도소매)] 연중무휴,입점브랜드:수협은행 / 새마을금고 / 수협 바다마트 / 수산물소매점 680여 개,쇼핑
서울 중부시장,서울특별시 중구 을지로36길 35,37.5651409407,127.0019383691,서울 중부시장은 서울특별시 중구에 위치한 전통적인 재래시장으로 다양한 상품과 먹거리를 제공하는 곳이다. 중부시장은 다양한 음식 의류 생필품 등을 판매하는 상점들이 밀집해 있어 쇼핑과 먹거리를 동시에 즐길 수 있는 명소로 유명하다. 이곳은 특히 김 미역 조기 멸치 오징어 북어 쥐포 등 마른반찬 재료로 쓰이는 건어물들을 저렴한 가격에 살 수 있다. 또한 시장 내에서는 지역 주민들과의 소통과 활기찬 분위기를 느낄 수 있어 서울의 옛 정취를 경험할 수 있는 특별한 장소이다.,점포별 상이함,점포별 상이함,,쇼핑
세브도르,서울특별시 강남구 언주로 431,37.478954545,127.0474283341,서울에서 술만 전문으로 파는 전문점이 생겨 손님을 맞기 시작한 때가 1990년 9월이다. 세브도르는 이제 애주가들 사이에 꽤 알려진 곳이다. 이곳에는 국내 업체에서 생산하는 민속주 소주 맥주 와인 양주 등은 물론 동·서유럽 각국과 미국 일본 중국 대만 소련 등지의 와인 위스키 코냑 진 보드카 등 모두 1 000여 종 이상의 진귀한 술이 전시 및 판매되고 있다. 이곳에서는 정찰제를 실시한다. 이곳의 정찰가격은 시중 소매점이나 백화점에 비해 싼 편이다. 세일은 보통 추석이나 설 등 성수기가 지난 후에 실시하는데 성수기라도 단체로 구입하는 경우에는 정찰가격보다 싸게 살 수 있다.,평일 09:00~24:00 주말 12:00~22:00,연중무휴,,쇼핑
인사동 고미술거리,서울특별시 종로구 인사동길 29,37.5732591505,126.9857423926,인사동 고미술거리는 인사동에서 고미술품을 거래하는 점포가 모여있는 거리이다. 현재 인사동 사거리에서 고미술품을 거래하는 점포는 70군데이다. 거래되는 고미술품에는 옛 그림 도자기 목기 금속품이 있다. 통일신라시대의 토기에서부터 조선시대 백자에 이르기까지 골고루 갖추고 있다. 고미술 가게에 따라 각각 고가구 미술품 소품류를 전문으로 하는 곳으로 나뉜다. 특별하게 어느 가게의 물건이 좋고 고가품이라는 기준은 없다. 여기서는 집안의 고미술품을 내다 팔거나 바꿀 수도 있다. 통인가게 건너편 2층에 있는 고미술 경매 주식회사에서는 경매를 주선하며 거래가 이루어지면 매매가의 10%를 수수료로 받을 수 있다. 고미술 경매 주식회사에서는 한 해에 몇 차례씩 고미술품 소장가들의 명품 전시회를 열고 있다.,점포마다 상이,점포마다 상이,제조자 이름: 입점브랜드:,쇼핑
경일문화가게,서울특별시 종로구 인사동4길 17,37.5738340983,126.9865478589,경일문화가게는 한국 전통 상품과 대표 상품을 제작하고 판매하는 곳으로 인사동에 위치해 있다. 한국의 멋을 느끼기 위해 인사동을 찾는 시민과 외국인 관광객들에게 기념품을 주로 판매하고 있다. 자개로 만든 명함케이스나 거울대 전통 그림을 넣은 부채 등 한국 전통의 문양과 멋을 느낄 수 있어서 상품이 있어 관광 기념품으로 인기가 많다. 오프라인 매장과 온라인 매장도 갖추고 있어서 매장에서 본 상품을 온라인으로 구매할 수도 있다.,10:00~18:00,매주 일요일,제조자 이름: 입점브랜드:,쇼핑
서울 약령시장,서울특별시 동대문구 약령중앙로 10,37.5791427223,127.0370431067,약령시(藥令市)는 원래 조선 효종 때 귀한 한약재의 수집을 위해 주요 약재 생산지에 관찰사를 상주시키고 왕명으로 만든 약재상 집결지이다. 그 당시에는 약재의 채취 수확 시기에 맞추어 춘령시와 추령시로 1년에 두 번 열리는 계절장이었다. 현재는 서울약령시 이외에도 대구 제천 등 전국에 여러 약령시가 있지만 서울약령시가 규모나 역사로 볼 때 가장 큰 시장이다. 현대적인 서울약령시의 역사는 1960년대 중반으로 거슬러 올라간다. 서울 동부 도심권의 교통 요충지인 청량리역과 마장동 시외버스터미널을 중심으로 한약 상인들이 하나둘 모여들면서 구성되었다. 한국전쟁 이후 경기도와 강원도 일대의 농민들이 생산하거나 채취해 온 농산물과 채소 및 임산물들이 옛 성동역(城東驛 현 한솔동의보감)과 청량리역을 통해 몰려들어 그 반입과 판매를 위해 인근 논을 매립한 공터에서 장사를 벌이기 시작하면서부터 자연히 시장이 형성된 것이 서울약령시의 시초이다. 1960년 6월 공설시장 개설 허가를 받은 후 서울 시내에서 모든 농산물을 골고루 갖춘 가장 싸게 파는 시장으로 자리를 잡았으며 특히 한약재의 주산지인 강원도 등과 철도 및 도로로 편리하게 연결되면서 급속히 발전하여 1960년대 후반에는 한약재 등의 특종 물품을 취급하는 전문시장으로 변모하게 되었다. 지금과 같은 규모와 상품 구색을 갖추게 된 것은 1970년대이다. 종로 4가와 종로 5가에 모여 있던 전통적인 토박이 약재상들이 이곳으로 이사 오면서 서울약령시가 약재 집산지 역할을 담당하게 되었다. 1970년대부터는 전국적으로 명성이 알려지면서 시장은 급격히 확대되었고 1980년 8월에는 시장 근대화 사업을 촉진시켜 근대 시장으로서의 면모를 갖추게 되었다. 1983년부터는 인삼과 꿀까지 취급하면서 서울에서 소비되는 인삼과 꿀의 약 4분의 3 전국 한약재의 약 3분의 2가 서울약령시를 통해 유통되고 있다. 이러한 변천 과정을 거쳐 서울약령시는 전국에서 가장 큰 한약재 시장으로 자리를 잡았을 뿐만 아니라 세계적인 약재시장으로 커나가고 있다. 그래서 중국과 대만 홍콩 일본 뉴질랜드 같은 나라들과 활발한 수출입 활동을 벌이고 있다. 서울약령시장이 ‘서울약령시’라는 정식 명칭을 부여받은 것은 1995년 6월이었다. ‘서울약령시(전통한약시장지역)’로 지정된 이후 한약과 관련된 다양하고 새로운 시설과 제도들을 마련하고 운영하고 있다.,09:00~18:00,점포별 상이함,,쇼핑
을지로 철제가구거리,서울특별시 중구 을지로,37.5672683908,126.9974609396,을지로가구거리는 필요한 가구를 저렴하게 살 수 있는 거리이다. 을지로가구거리가 다른 가구거리와 다른 점은 상업용 가구들이 많다는 것이 특징이다. 몇 년 전 크게 유행했던 철제가구의 인기가 떨어지면서 여러 가지 가구를 함께 취급하는 가구 전문점이 들어서고 있고 그 사이로 유명 업체 가구점들도 하나둘씩 들어서고 있다. 철제가구는 목제가구에 비해 값이 싸고 튼튼하므로 사무자동화용 가구로 많이 찾는다. 일반 소비자들이 사무용 가구를 한두 개 살 때는 동네가구점보다 10% 정도 싸게 살 수 있다. 사무용 철제책상은 10만 원 부터 20만 원 선이다. 의자는 2만 원 부터 30만 원대까지 있다. 또한 이곳에는 자체 공장을 가진 가게가 많아서 싼값에 직거래할 수 있다는 이점이 있다. 주로 중소업체들인데 의자 책상 등 단일 품목 위주로 생산한다. 자체 생산이 되지 않는 가구류는 다른 공장에서 납품받아 팔고 있다. 주변 조명거리와도 연결되어 있고 인테리어 관련 다양한 가구도 만나볼 수 있다. 황학동 일대가 중고 가구를 판매한다면 을지로는 신제품 판매장이다. 상업용 가구라고 하지만 가정에서도 사용할 수 있는 가구도 있으며 다양한 제품들을 한눈에 볼 수 있다.,점포마다 상이,점포마다 상이,제조자 이름: 입점브랜드:,쇼핑
롯데월드 쇼핑몰,서울특별시 송파구 올림픽로 300 (신천동),37.5141653654,127.1040749597,쇼핑몰이 위치한 단지 내에 세계최대의 실내주제공원인 롯데월드 어드벤처 및 우리 민족의 문화와 민속을 쉽게 접할 수 있는 민속박물관 그리고 연중무휴로 연인과 가족이 함께 스케이트를 즐길 수 있는 아이스링크 및 실내수영장 볼링장 스포츠센터 등이 있다. 또한 백화점과 롯데마트도 같이 있어 문화와 쇼핑 여가생활을 동시에 즐길 수 있는 명소이다.,10:30~20:00,연중무휴,,쇼핑
롯데면세점 본점,서울특별시 중구 을지로 30 (소공동),37.5654016461,126.981045821,서울 중심부에 위치해 있는 롯데면세점 본점은 다양한 브랜드 및 다양한 상품을 보유하고 있는 쇼핑의 중심지이다. 롯데백화점 본점9층 10층 11층에 위치해 있으며 LOUIS VUITTON CHANEL HERMES CARTIER TIFFANY PRADA GUCCI BOTTEGA VENETA PRADA 등 최고 명품 브랜드들이 입점해 있다.,09:30~20:00,연중무휴,,쇼핑
종로3가 귀금속 전문상가,서울특별시 종로구 종로3가,37.5705317976,126.9917474779,종로 귀금속 거리는 국내 최대 규모의 귀금속 전문 상가이다. 1960년대부터 예지동을 중심으로 그 범위가 확장되면서 종로 전체를 아우르고 있으며 오랜 전통의 귀금속 상가이다. 종로3가역에서 내려 단성사 옆 골목으로 가다 보면 수많은 귀금속 상점이 줄이어선 골목길을 쉽게 찾을 수 있다. 상가 수가 3 000여 개에 달하며 지금도 전국 주얼리 물동량의 70%를 차지할 만큼 활발한 거래가 이루어지고 있다. 시중가보다 약 20~40% 저렴한 가격으로 귀금속을 구매할 수 있어 실속파에게 인기가 많다. 특히 단성사는 11층 가운데 지상 3층에서 지하 1층까지를 귀금속 센터로 꾸며 약 500개의 귀금속 매장을 입점시켰다. 젊은 사람들이 많이 찾으며 혼수품을 구매하는 예비부부의 발걸음이 잦을 뿐만 아니라 단순 쇼핑을 즐기는 젊은 층의 발길도 잦다. 또한 외국인들의 쇼핑 코스로도 인기를 끌고 있다.,매장마다 상이,매장마다 상이,제조자 이름: 입점브랜드:,쇼핑
한국의집 사랑 카페앤아트샵,서울특별시 중구 퇴계로36길 10 (필동2가),37.5602774831,126.9945141838,한국문화재재단은 상품개발을 통한 전통고예의 전승 보존과 전통문화의 국내외 홍보에 이바지하며 우리 문화의 세계적 상품화에 주도적인 역할을 하고 있다. 한국문화재재단에서 개발하는 전통문화상품은 전통문양을 응용하고 한국적 조형미를 살려 전통공예기법에 따라 제작한 것들로 우리 고유문화의 이미지를 듬뿍 담고 있다. 한국의 집 카페 앤 아트숍은 전통문화상품을 판매와 동시에 차를 마시고 쉴 수 있는 카페 전통혼례 관련 상담을 하실 수 있는 복합문화공간이다. 문화상품으로는 도자기 나전칠기 화각공예품 한지공예품 섬유공예품 옥공예품 옻칠 및 목공예품 금속공예품 등을 만나볼 수 있다. 한국의 집 사랑 카페 앤 아트숍에서 세계적인 명품으로 손색없는 고품격 한국의 전통문화상품을 만나보자.,10:00~19:00,매주 월요일,제조자 이름: 입점브랜드:,쇼핑
고투몰(강남터미널 지하쇼핑몰),서울특별시 서초구 신반포로 지하200 (잠원동),37.5062728353,127.0050675283,고속터미널역 지하에 위치한 쇼핑몰로 강남터미널 쇼핑몰이라고도 불린다. 패션 뷰티 액세서리 등 다양한 상품의 매장들이 입점해 있어 쇼핑의 즐거움을 더한다. 특히 최신 트렌드를 반영한 브랜드와 가성비 좋은 아이템들이 많아 젊은 층에게 인기가 높다. 또한 편리한 교통 접근성 덕분에 많은 관광객과 지역 주민들이 자주 찾는 명소이다.,10:00~22:00,설·추석 당일,,쇼핑
중곡동 가구거리,서울특별시 광진구 천호대로,37.5571404902,127.0796620717,중곡동 가구거리는 1960년대 형성된 곳으로 어린이 대공원 후문에서 군자로 사이에 리바트 삼익가구 등 대형업체의 대리점부터 중소 가구업체까지 65여 개 정도의 숍이 늘어서 있다. 다양한 브랜드의 가구를 비교할 수 있는 중곡동 가구거리는 일반적인 가구는 물론 고급 가구 사무용 가구 학생용 가구 등 다양한 디자인과 용도의 가구들이 전시되어 있다. 또한 가구점마다 주차장을 갖추고 있어 편리한 쇼핑을 할 수 있다.,매장별 상이,매장별 상이,제조자 이름: 입점브랜드:리바트 / 금성침대 / 삼익가구 등,쇼핑
우석공예사,서울특별시 종로구 창경궁로 88 2층 특관,37.5701042119,126.999680101,은행잎 표 제품들은 엄격한 검사 기준과 품질관리로 출고되며 일본 등 세계 각지로 수출하여 호평받고 있다. 결혼 준비 혼수용품 혹은 외국에 선물이나 기념품 등을 주로 생산하며 우리가 미처 몰랐던 전통공예의 멋을 살려 어디에 내놓아도 손색없는 품위와 다양한 디자인으로 호평받고 있다.,10:00~17:00,매주 일요일,,쇼핑
밀리오레 명동점,"서울특별시 중구 퇴계로 115 (충무로1가) 1, 2층",37.5611022086,126.984540069,한국 대표 관광지 명동에 위치한 쇼핑몰 밀리오레 명동점은 2024년 8월에 리모델링 후 재오픈하였다. 명동역 6번 출구 바로 앞에 위치해 있다. 1층과 2층은 쇼핑몰이고 3층부터 17층은 호텔로 운영 중이다. 한 곳에서 쇼핑과 숙박이 모두 가능한 복합문화공간이다. 밀리오레 쇼핑몰 명동점 1층에는 뷰티&라이프스타일 브랜드인 올리브영과 글로벌 스파 브랜드인 지오다노가 입점해 있다. 2층에는 개인 맞춤형 패션 플랫폼 트렌드 편집샵 브랜드 폴더와 로맨틱 라이프스타일 20~30대 여성 영캐주얼 브랜드 로엠 영패션 피플들을 위한 모던 컨템퍼러리 브랜드 드로우핏 유니크한 펑크스타일의 셀럽들의 워너비 브랜드 인스턴트펑크가 입점해 있다. 또한 인기 아이돌의 최신 앨범 콘서트용 라이트 스틱 희귀 포토카드와 잡지를 구매할 수 있는 K POP의 모든 것 올댓케이팝도 있다. 이외에도 카페 등도 있어 쇼핑을 하다가 쉬어갈 수 있다.,매장 별로 상이,연중무휴,입점브랜드:올리브영 / 지오다노 / 폴더 / 로엠 / 인스턴트펑크 / 신디 / 올댓케이팝 / 드로우핏 / 맷차 카페,쇼핑
해밀톤 쇼핑센터,서울특별시 용산구 이태원로 179 (이태원동),37.5347276602,126.9937149795,6호선 이태원역 1번 출구 오른편에 위치한 해밀톤 쇼핑센터는 종합쇼핑센터이다. 이태원 중심지에 위치하고 있어 접근성이 좋으며 유명 브랜드들이 입점해 있다. 각종 의류 및 잡화 뷰티 제품 등 다양한 품목을 구매할 수 있다.,점포별 상이,점포별 상이,,쇼핑
이태원 쇼핑거리,서울특별시 용산구 이태원동,37.533861039,126.9906791694,이태원 쇼핑거리는 1.4㎞ 도로구간 양측에 밀집한 2 400여개 업소가 다양한 상품을 저렴한 가격에 공급하는 종합 관광지이다. 이태원 쇼핑거리는 특히 다양성과 독특한 디자인의 제품으로 유명하며 여기에서는 주로 패션 아이템 액세서리 예술 작품 등을 찾을 수 있다. 외국인 관광객이 많이 방문하는 곳이라 외국어 소통이 자유롭고 서울 속의 작은 지구촌이다. 서울을 처음 방문하는 외국인들이 쇼핑 관광 숙박 정보 수집 등을 원스톱으로 서비스를 받을 수 있는 외국인 관광 허브이자 세계의 다국적 다민족적 다정체성의 문화적 정서가 수용되고 교감 되는 퓨전 문화지역이다.,매장마다 상이,매장마다 상이,,쇼핑
롯데백화점 본점,서울특별시 중구 남대문로 81,37.5647378465,126.9817152234,롯데백화점 본점은 서울 중구 을지로입구역 인근에 위치하였다. 이곳은 매일 새로움과 즐거운 경험을 제공한다. 롯데백화점 본점의 본관 에비뉴엘관에는 더욱 다양해진 프리미엄 여성 남성해외패션 브랜드들이 준비되어 있다. 갤러리에 온 듯한 특별한 미술품들도 매장에서 감상할 수 있다. 또한 내부에 한식 중식 양식 등 다양한 음식점들이 자리하여 쇼핑과 함께 먹거리도 즐길 수 있다. 역 앞에 위치하여서 방문하기 편하다.,월요일~목요일 10:30~20:00 금요일~일요일 10:30~20:30,명절 당일,입점브랜드:홈페이지 참조,쇼핑
통인시장,서울특별시 종로구 자하문로15길 18 (통인동),37.5808190992,126.9699630613,통인시장은 1941년 6월 일제강점기 효자동 인근 일본인들을 위해 설립된 공설시장이 모태이다. 6.25 전쟁 이후 서촌 지역의 급격한 인구 증가로 인한 소비공간의 필요에 따라 공설시장 주변으로 노점과 상점이 형성되면서 점차 시장의 형태를 갖추어 나가게 되었다. 2005년 ‘재래시장 육성을 위한 특별법(현행 전통시장 및 상점가 육성을 위한 특별법)’에 따라 ‘인정시장(認定市場)’으로 등록된 뒤 현대화 시설을 갖추었고 2010년 서울시와 종로구가 주관하는 ‘서울형 문화시장’으로 선정되었다. 2011년에는 시장상인회가 마을기업으로 (주)통인커뮤니티를 법인 등록하여 통합콜센터와 배송센터를 설치하고 온라인 쇼핑몰도 개설하였다. 점포 수는 70여 개로 식당 반찬가게 등 요식 관련 업소가 가장 많고 채소 과일 생선 정육 등 1차 생산품을 판매하는 업소가 그 다음이며 그밖에 내의 등 공산품 옷 수선 업소 등이 있다. 2012년 1월부터 ‘도시락카페 통(通)’을 운영하여 큰 호응을 얻고 있다.,"[통인시장] 07:00~21:00 단, 점포 별로 상이함 [도시락카페] 11:00~15:00 [엽전판매] 평일 15:00까지 / 주말 16:00까지","[통인시장]연중무휴 단, 점포 별로 상이함 [도시락카페[ 매주 화요일",제조자 이름: 입점브랜드:,쇼핑
서울풍물시장,서울특별시 동대문구 천호대로4길 21 (신설동),37.5727654781,127.0255193372,서울풍물시장은 원래 청계천이 복원되기 전 황학동을 중심으로 우리나라를 대표하는 벼룩시장 또는 만물시장이라는 이름으로 운영을 하고 있었다. 전국 각지에서 수집된 오래된 물건이나 상품을 판매하는 점포와 거리로 황학동 벼룩시장이 형성되었다. 청계천 복원 사업과 함께 황학동과 청계천변 노점 상태로 운영 중이던 황학동 벼룩시장은 (구) 동대문운동장 내 동대문 풍물벼룩시장으로 이전하여 영업을 해왔다. 그러던 중 (구) 동대문운동장 공원화 선행사업으로 관광산업과 연계한 우리나라를 대표하는 풍물시장 개발을 위해 청계천과 인접한 청계 8가 숭인여중 자리에 세계적인 풍물시장을 목표로 새로운 쇼핑의 명소가 될 서울풍물시장(Seoul Folk Flea Market)을 개장하였다. 서울풍물시장은 골동품 근현대사 상품 우리 고유의 옛것에부터 생활잡화 가방 구제의류까지 구매할 수 있는 다양한 상품을 판매하고 있다. 또한 전통생활용품 전시장등 다양한 볼거리 먹거리 즐길거리가 한 공간에 함께 있어 특색 있는 시장이다. 특히 지난 2015년도에는 ‘서울시 미래유산’으로 선정되었다.,시장 10:00~19:00 식당가 10:00~22:00,매주 화요일,제조자 이름: 입점브랜드:,쇼핑
스타필드 코엑스몰,서울특별시 강남구 영동대로 513 (삼성동),37.5119175967,127.059217995,트렌드와 문화의 흐름을 이끄는 도시의 매력 스타필드 코엑스몰이 서울의 중심에서 새로운 삶을 이야기한다. 동시대 패션과 미식 문화와 엔터테인먼트까지 도시의 감성이 깃든 다양한 선택지를 제공한다. 뷰티 패션 라이프스타일 등 320여 개 매장을 둘러보는 것만으로도 트렌드를 읽을 수 있고 100여 곳의 레스토랑과 카페에서 눈과 입이 동시에 즐거워지는 경험을 할 수 있다. 스타필드 코엑스몰 중심에 자리 잡은 ‘별마당 도서관’은 독서와 사색은 물론 문학과 예술 분야 명사와 소통하고 공감하는 문화공간이다.,10:00~22:00,연중무휴,입점브랜드:자라 / 유니클로 / H&M / 자주 / 까사미아 등,쇼핑
파르나스몰,서울특별시 강남구 테헤란로 521,37.5095984514,127.0608845757,호텔전문기업에서 최초로 선보이는 프리미엄 캐주얼 몰인 파르나스몰은 그랜드 인터컨티넨탈 서울 파르나스 지하 1층의 공간에 위치하고 있다. 파르나스몰은 one and only와 프리미엄을 추구하는 트렌디 쇼핑몰이다. 단순히 물건 구매만을 위한 쇼핑몰이 아닌 예술과 문화 그리고 쇼핑이 공존하는 새로운 개념의 쇼핑몰이다. 파르나스몰에서는 특별하고 품격 있는 브랜드들을 만나볼 수 있으며 문화 아틀리에 PAR T를 포함한 다양한 문화 행사들을 진행하고 있다.,10:30~22:00 일부 영업시간이 다른 매장이 있음 행사로 인해 영업시간이 변경되는 경우가 있음,연중무휴,입점브랜드:이솝 / 룰루레몬 / 올리브영 / 파타고니아 / 시스티나 등,쇼핑
언더스탠드에비뉴,서울특별시 성동구 왕십리로 63,37.5436136344,127.043596296,2016년 4월 18일 개관한 언더스탠드에비뉴는 민·관·기업 간 상생협력 사회공헌 프로젝트로 탄생한 창조적 공익문화공간이다. 개관 이후 현재까지 약 800만 명이 누적 방문했고 연간 130만 명 이상이 꾸준히 찾는 성동구의 대표 핫플레이스로 꼽힌다. 116개의 컨테이너 박스에서는 사회적 가치를 추구하는 청년 창업가와 함께 어르신 일자리 마련 및 취약 계층 고용도 지속하고 있다. 이로써 언더스탠드에비뉴는 따뜻한 성장을 대표하는 일자리 창출 플랫폼으로서의 역할을 수행하고 있다.,10:00~22:00 점포 별로 상이함,설·추석 전날 및 당일 점포 별로 상이함,,쇼핑
서촌나들이,서울특별시 종로구 자하문로 13,37.5772389972,126.9720046434,서촌나들이는 1970년대부터 경복궁 서촌 제1호 한복전문점으로 지금까지 우리 옷의 아름다움을 전해오고 있다. 단아하고 세련된 전통한복과 모던하고 화려한 스타일의 스페셜한복 등 다양한 색감과 디자인의 한복을 대여할 수 있다. 한복체험은 불가하고 졸업사진 돌잔치 등 행사를 위한 대여가 가능하다.,09:30~19:00,연중무휴,,쇼핑
홍대앞 희망시장,서울특별시 마포구 와우산로21길 19 3,37.5521688104,126.9229764878,‘하고 싶은 예술을 하며 모두와 협력하는 문화예술 협동조합’을 줄인 ‘하하협문화예술협동조합’에서 주관 및 운영하고 있는 홍대 앞 희망시장은 우리나라 최초의 수공예문화예술 행사이다. 젊은 창작가와 기획자 및 작가들이 자신의 작품을 인정받고 보여줄 수 있는 곳으로 지역주민들과 새롭고 독특한 문화를 찾아 즐기는 관람객들이 한데 어우러지는 의미 있는 공간으로 자리 잡았다.,13:00~18:00,매주 월요일 / 매년 12월~2월 / 우천시 휴장,제조자 이름: 입점브랜드:,쇼핑
아트코리아,서울특별시 종로구 자하문로 231,37.5947562474,126.9632160596,아트코리아는 화장품 브랜드 편집 숍이다. 국내/외 브랜드 및 자체 제작 화장품을 판매하고 진열대 제품 시연 및 직원의 설명 서비스를 제공받을 수 있다. 다양한 브랜드가 모여 있어 제품 비교는 물론 피부 타입에 따른 제품 구매에 용이하다. 아트코리아는 외국인을 대상으로 하는 사후면세점으로 운영하고 외국인의 쇼핑 편의성 제고를 위해 영어 중국어 일본어 가능 직원이 상주한다. 단체 방문객이 있을 때나 이벤트 지정 시간대에는 중앙 이벤트 판매장에서 특별 행사 제품을 판매하고 가격 할인 사은품 제공 등 다양한 이벤트도 상시 펼쳐진다.,9:00~17:00,연중무휴,입점브랜드:천비밀 이한카리노 / 천비밀 리타임즈 / 이한카리노 / 리타임즈 / 예한 / TSM,쇼핑
구로시장,서울특별시 구로구 구로동로22길 17 4 (구로동),37.4896837364,126.8856260957,1962년 경인국도를 따라 구로구에 대규모의 주택들과 구로공단이 형성되면서 시장이 필요해졌고 그에 따라 계획적으로 만들어진 시장이다. 구로시장은 구로구에 있는 재래시장 중 가장 먼저 터를 잡았으며 개장 초기 포목과 한복 의류 가게부터 해서 떡집 참기름 집 먹자골목 등이 형성되었다. 현재에도 구로시장에는 한복집이 많은데 그 이유는 구로공단에서 일했던 여성 노동자들이 명절 귀향길에 한복을 입고 가족 선물로도 한복을 많이 장만해 갔으며 혼수를 이곳에서 구입했기 때문이다. 남대문시장 동대문시장 다음으로 구로시장이란 말이 있을 정도로 이곳의 포목점은 호황을 누렸다. 시장 양 옆으로 포목점과 한복집이 늘어서면서 비단길이라고 불렀다고 한다. 2015년 노후화 시설을 개선하는 현대화 사업을 착수 날씨에도 안전한 아케이드를 설치하고 간판을 정비했다. 구로시장은 중국인 등 외국인이 많이 사는 동네라 여느 전통시장에서와는 다른 식재료들을 판매하는 곳이 많다. 그 외에도 우리의 전통적인 식품 반찬 농산물 수산물 의류 잡화 등 다양한 물건들을 저렴하게 판매하고 있다. 먹거리도 풍부해서 맷돌손두부 진한 팥죽 떡볶이 보리밥과 함께 나오는 칼국수 40년 전통의 엄마손국수공장 등 맛있는 음식을 가성비 있는 가격으로 맛볼 수 있다.,,매월 첫째 주 월요일,,쇼핑
신영시장(서울),서울특별시 양천구 월정로 161 5,37.5330778105,126.8360432845,신영시장은 즐길 거리 볼거리 먹거리가 있는 신월1동 시장이다. 서울시 25개 자치구 중 최초로 전통시장을 찾는 고객들이 여유로운 쇼핑과 편안한 휴식을 할 수 있도록 서울시 주민참여예산 1억 원을 확보하여 뉴제로마켓과 하늘문화센터를 개장하였다. 전통시장에서 값싸고 신선한 각종 채소 과일 생선 등을 골라 사는 재미와 함께 시장 카페에 들러 커피와 차를 마실 수 있는 휴식 공간을 제공한다. 뉴제로마켓은 양천지역자활센터와 상인회에서 운영하고 있으며 지역밀착형 카페 운영을 통해 전통시장 활성화와 양천구 저소득층의 자립기반 조성에도 기여하고 있다. 하늘문화센터에서는 주민들에게 취미생활을 제공하고 시장 고객과 주민 상인들의 각종 모임이나 취미 공간으로도 활용하고 있다.,점포 별로 상이함,점포 별로 상이함,,쇼핑
더블유피엠,서울특별시 중구 소공로 58 회현지하도상가 다 32호,37.5604550174,126.9820764229,세월을 수집하는 더블유피엠은 기념우표 화폐 그리고 특정 브랜드의 한정판 모델까지 옛날 물건을 만나며 시간 여행을 떠날 수 있다. 또한 수집품 판매뿐만 아니라 수집을 취미로 하는 다양한 사람들을 만날 수 있다. 물건에 담긴 추억을 수집하고 싶다면 회현 지하도 상가로 떠나보자.,,,,쇼핑
방이시장,서울특별시 송파구 백제고분로48길 41 (방이동),37.5104077116,127.1175821709,방이시장은 1980년대 말부터 형성된 골목형 종합시장이다. 의류 채소 생선 과일 잡화 등을 취급하는 240여 개 점포가 형성되어 있으며 상인의 70%가 동네 터줏대감들이다. 시대의 흐름에 발맞춰 친절하고 청결한 시장으로 거듭나면서 방이시장은 외국인들의 관광 필수 코스로 자리 잡았다.,,,제조자 이름: 입점브랜드:,쇼핑
더현대 서울,서울특별시 영등포구 여의대로 108 (여의도동),37.5271495732,126.9273156868,글로벌 트렌드 K 콘텐츠의 핵심 서울 그 중심에 초현대적인 플래그십 스토어 더현대 서울이 있다. 더현대 서울은 미래를 향한 울림이라는 슬로건 아래 더 행복한 내일을 위한 비전과 새로운 삶의 기준을 제시한다. 혁신적 공간 설계 세계적 콘텐츠 큐레이션 그리고 미래형 테크놀로지까지 더현대 서울은 서울 최대 규모의 뉴 글로벌 랜드마크이다. 새로운 소재와의 만남 면과 선의 균형 그리고 빛으로 가득 채우는 혁신적인 내부 설계를 자랑한다. 더현대 서울에서는 세계적인 인테리어&건축 디자인의 흐름을 단숨에 볼 수 있다. 내부에 들어서는 순간 사운즈 포레스트와 워터폴 가든을 만나게 된다. 미래를 바라보고 설계한 하이테크 건축물에서 만나는 뜻밖의 자연은 놀라울 정도로 아름답다. 약 1 000평의 대규모 실내 정원과 천연 잔디 20여 m의 높은 유리 천장에서 들어차는 자연 채광은 숲의 울림을 그대로 전하고 있다. 예술은 말하지 않아도 느낄 수 있고 공감할 수 있는 가장 큰 범주의 언어이다. 180평 규모의 입체적인 전시는 들어서는 순간 압도적으로 영감을 자극한다. 나은 삶의 영감과 문화를 위한 소통이 이곳에서 시작된다. Unite & Shine STUDIO SWINE 자연에서 온 메시지를 담은 디자인과 이를 즐기고 느끼는 관객으로 완성되는 Studio Swine의 아트워크가 Exclusive Label (1F) 플로어에서 하이엔드 브랜드와 만난다.,월요일~목요일 10:30~20:00 금요일~일요일 10:30~20:30 식당가 10:30~22:00,홈페이지 확인,,쇼핑
하모니마트 명동역점,서울특별시 중구 명동10길 58 신일빌딩 별관 지하 1층,37.5613522015,126.9857705052,하모니마트 명동역점은 서울 지하철 명동역 8번 출구에서 도보 1분 거리에 위치한 신일빌딩 별관 건물 지하 1층에 있는 슈퍼마켓이다. 외국인 입맛에 맞는 한국 김치 김 인삼제품 라면 공예품 생필품 기념품 등을 구비하고 있는데 가장 잘 팔리는 제품은 김 과자세트 인삼차다. 영어·중국어·일본어 응대가 가능하고 엔화와 위안화로도 결제가 가능하다.,8:00~24:00,연중무휴,,쇼핑
하우스 도산,서울특별시 강남구 압구정로46길 50 (신사동),37.5254239385,127.0356947531,2021년 2월에 문을 연 하우스 도산은 글로벌 패션 아이웨어 브랜드 젠틀몬스터를 운영하는 아이아이컴바인드의 대표 매장이다. 지하 1층~지상 4층 건물에 젠틀몬스터 디저트 브랜드 누데이크 화장품 브랜드 탬버린즈까지 자사의 여러 브랜드가 모여 있다. 하우스 도산은 퓨처 리테일의 새로운 방향성을 제시하고 젠틀몬스터가 선보일 또 다른 퓨처 리테일의 시작점이라고 할 수 있다.,11:00~21:00,연중무휴,입점브랜드:젠틀몬스터 / 누데이크 / 템버린즈 / 아이아이컴바인드 / 크라운구스 등,쇼핑
두타몰,서울특별시 중구 장충단로 275,37.5688767395,127.0087681967,두타몰은 서울 중구에 위치한 대형 쇼핑몰이다. 다양한 브랜드의 패션 뷰티 라이프스타일 제품을 한곳에서 만날 수 있는 복합 쇼핑 공간이다. 다양한 국내 디자이너 브랜드와 트렌디한 패션 아이템을 한곳에서 만나볼 수 있다. 특히 젊은 층을 겨냥한 트렌디한 매장이 많아 쇼핑의 즐거움을 더한다. 또한 다양한 음식점과 카페가 있어 쇼핑 중간에 휴식을 취하기에도 적합하다. 쇼핑과 문화 여가를 동시에 즐길 수 있는 공간이다.,10:30~00:00,연중무휴,,쇼핑
밀리오레 동대문점,서울특별시 중구 장충단로 263,37.5679629533,127.0085265783,밀리오레 동대문점은 한 공간에서 모든 것을 해결할 수 있는 원스톱 쇼핑 공간이다. 동대문은 종로5가역부터 동대문 지하철역까지 전통시장이 형성되어 있다. 최근에는 시장이 현대화되면서 프레야타운 두산타워 밀리오레 등 대형 패션몰들이 생겨났다. 동대문 밀리오레는 시장의 장점인 패션의류와 다양한 제품 저렴한 가격과 깨끗하고 백화점의 장점인 현대적인 건물 다양한 편의시설을 갖춘 패션몰이다. 지하 2층부터 지상 9층까지 수입명품 아동복 임부복 여성복 남성복 패션잡화 전통공예 기념품 한복 구두 등 모든 패션 아이템이 모여있다. 9층에는 식당가도 있어서 먹을거리 볼거리가 가득한 곳이다. 수도권 지하철 2 4 5호선 동대문역사문화공원역 14번 출구에서 도보 5분 거리에 있다. 청계천과 동대문(흥인지문)이 접해 있어서 국내외 관광객들이 많이 찾는다.,10:30~02:00,월요일 / 명절은 별도 공지,,쇼핑
채그로,서울특별시 마포구 마포대로4다길 31 (마포동),37.5357044387,126.9442833439,채그로는 책과 만나는 모든 행복한 접점을 만들어 내는 경험 공간이다. 책과 커피 한강뷰를 즐기면서 누구든 와서 행복감을 느낄 수 있는 복합문화공간이다. 넓은 유리창을 통해 한강을 바라보면서 책을 읽거나 사색에 잠기는 등 자기만의 시간을 갖기에 좋다. 친구와 가족과 수다를 떨면서 낭만을 즐기는 것도 대환영이다. 365일 서울 한강의 석양을 볼 수 있는 최고의 명소이며 멋진 서울의 야경을 즐길 수 있다. 채그로 이용가능 공간은 2~3층 5~6층 8~9층이다. 각 층 별로 공간이 나뉘어 있어 부담없이 이용할 수 있다.,09:30~21:30,연중무휴,체험안내:독서모임,쇼핑
숭인시장,서울특별시 강북구 도봉로 45 (미아동),37.6131858511,127.0294761615,미아삼거리에 위치한 40년 전통의 재래시장으로 지하철역과도 가까워서 접근성이 좋은 시장이다. 떡볶이가 맛있는 시장으로도 유명하다. 떡볶이 외에도 각종 먹거리 곡물 채소 과일 가공식품 각종 생필품을 취급 판매하고 있다. 주차는 숭인 주차장을 이용하면 된다.,점포별 상이,"매월 첫째 주, 셋째 주 일요일",입점브랜드:abc마트 자주(JAJU),쇼핑
인헌시장,서울특별시 관악구 봉천동,37.4748535543,126.9656136731,인헌시장은 서울 관악구 인헌동에 위치한 전통 재래시장으로 38년의 역사를 자랑한다. 현대화 사업을 통해 더욱 정돈된 모습으로 주민들에게 사랑받고 있는 곳이다. 큰 규모의 시장은 아니지만 다양한 품목의 식재료와 먹거리 잡화 등을 알차게 판매하고 있어 부족함이 없는 곳이다. 시장 특유의 정겨움도 느낄 수 있다.,점포 별로 상이함,점포 별로 상이함,,쇼핑
남성사계시장,서울특별시 동작구 동작대로29길 47 (사당동),37.4883938957,126.979403703,동작구 사당동의 전통 시장으로 과거 사당동의 명칭이 남성동이었을 때 붙여진 이름이다. 1966년부터 운영을 해오고 있는 곳으로 60년 가까운 역사를 품고 있는 전통시장이다. 시장 뒤편으로 대단지 아파트가 있고 전철역이나 대중교통으로도 접근성이 좋아 연평균 이용객이 5만 명을 넘는 지역 대표 전통시장이다. 관악구 동작구 전 지역과 서초구 일부 지역에 배달 서비스도 실시하고 있다. 입구에서부터 다양한 전과 반찬이 진열돼 있어 후각과 시각을 자극한다. 좁은 골목을 사이에 두고 상권이 길게 이어져 있으며 가게 옆 자투리 공간에는 작은 보따리 상인들이 손님을 맞는다.,09:00~22:00 점포 별로 상이함,연중무휴 점포 별로 상이함,,쇼핑
고척근린시장,서울특별시 구로구 고척로32길 11 3 (고척동),37.5021872007,126.8498040086,전통시장과 현대 시장의 분위기를 동시에 느낄 수 있는 시장이다. 총면적 약 2200㎡로 약 70여 개의 점포가 영업 중인 중소형으로 제로 페이가 대부분 가능하다. 1971년부터 영업을 시작했으며 주변에 고척 근린공원이 있어 찾기 쉽다. 아케이드 지붕으로 날씨에 상관없이 이용이 편리하고 주민들이 찾는 시장을 만들기 위해 프리마켓 독거노인 돕기 등 다양한 행사도 개최하고 있다.,09:00~21:00 점포 별로 상이함,매월 셋째 주 화요일 점포 별로 상이함,,쇼핑
뚝도시장,서울특별시 성동구 성수이로 32 15 (성수동2가),37.5378533948,127.0548426575,지형 삼면이 강으로 둘러싸여 있어 마치 섬 모양과 같다고 하여 뚝섬 또는 한자음으로 뚝도라고 불려졌다고 한다. 뚝도시장은 조선시대 때부터 강원도의 물건을 들여오는 길목에 위치해 있어서 남대문시장 동대문시장과 더불어 서울 3대 시장 중 하나였다고 한다. 현재의 모습을 갖춘 것은 1962년부터이다. 뚝도시장은 성동구 성수동에 위치한 전통재래시장으로서 최근 성수역을 중심으로 한 상권발달과 유동인구의 증가로 청년들의 먹거리 시장으로 떠올랐다. 또한 2016년부터 2018년까지 2년간 추진해 온 중기부 ‘청년상인 창업지원사업’ ‘2019년 청년몰 활성화 및 확장지원사업’ 부문에 선정되어 관심을 받는 곳이기도 하다.,09:00~23:00 점포 별로 상이함,연중무휴 점포 별로 상이함,,쇼핑
노룬산골목시장,서울특별시 광진구 자양동 816 79,37.5369286806,127.064750115,1970년대에 개설된 광진구에서 가장 역사 깊은 전통시장으로 정비가 잘되어 있는 골목형 시장이다. 건대입구역에서 나와 조금 걸으면 시장이어서 접근성이 좋으며 추억의 떡볶이와 전통 과자 등 다양한 먹거리도 인기다. 영동교 북단 방향으로 좀 더 걸으면 영동교골목시장까지 바로 연결되어 있어 동시에 이용할 수 있다.,점포별 상이,점포별 상이,,쇼핑
대신시장,서울특별시 영등포구 도신로60길 7 (신길동),37.5111234834,126.9176003574,서울특별시 영등포구 신길동에 위치한 재래시장이다. 1965년 개장하여 60년 가까운 역사를 지닌 상가형 시장이다. 신길동은 여의도와 샛강을 경계로 마주 보고 있는 곳으로 예전엔 서울로 들어오는 방학호진 나루터가 있을 만큼 교통의 요지였다고 한다. 그러다 보니 사람과 물건이 모여들었고 자연스럽게 시장이 생겨났다. 지금은 인근에 아파트 단지와 주택가들이 많이 밀집해 있어 이용객들이 많으며 정감 넘치고 인심 넘치는 재래시장으로 제 역할을 해내고 있다.,점포 별로 상이함,점포 별로 상이함,,쇼핑
가락몰,서울특별시 송파구 양재대로 932 (가락동),37.49615647,127.1110192841,가락농수산물도매시장 옆 송파대로 변에 현대식 건물로 지어진 쇼핑센터이다. 총 7개 동으로 구성되었으며 판매동 지하 1층은 청과물 지상 1층 수산물 건해물과 축산물을 판매한다. 2층은 마트 형식의 종합상가와 주방용품을 판매하며 3층은 전문식당관으로 운영되고 있다. 테마동 4관은 식품 식자재와 팔도 특산품 홍보매장도 운영한다. 2관에 있는 유기농 전문 마트 (주)다농도 주부들에게는 인기다.,점포별 상이,연중무휴 (점포별 상이),,쇼핑
정릉아리랑시장,서울특별시 성북구 아리랑로19길 10 (정릉동),37.6027034367,127.0128390879,아리랑고개로도 불리는 서울의 대표 고지대인 정릉에 있는 골목 시장이다. 정릉아리랑시장은 한국 영화 의 배경지였던 것에서 유래해 붙여진 이름으로 아리랑 골목 시장으로도 불린다. 2019년 SBS 예능프로그램 에 시장 내 청국장 전문식당과 지짐이집 수제함박스테이크집이 소개된 이후 맛집이 많은 시장으로 알려져 많은 사람이 방문하고 있다. 인근에 세계문화유산 정릉과 흥천사가 있어 함께 둘러보기 좋다.,점포 별로 상이함,점포 별로 상이함,,쇼핑
청량리청과물시장,서울특별시 동대문구 왕산로33길 4 (제기동),37.5797288624,127.0424287103,청량리청과물시장은 1958년부터 영업을 시작한 전통과 역사를 가진 청과물 전문 도매시장으로 약 170여 개의 점포가 성업 중이다. 경기도와 강원도에서 올라온 농산물은 이곳 청량리 시장으로 집결된 뒤 전국 각지로 다시 팔려나간다. 도매시장인 만큼 자정부터 새벽까지 시장이 활발하며 과일 외에 일반 시장처럼 야채 수산물 먹거리 등을 판매하는 점포들도 많다. 1호선 청량리역 1번 출구 앞에 있다.,00:00 ~ 24:00,,제조자 이름: 입점브랜드:,쇼핑
태릉시장,"서울특별시 중랑구 동일로129길 35 (중화동,태능에셈빌)",37.5992605586,127.0775638424,서울 중랑구 중랑역과 중화역 사이에 위치한 태릉시장은 1987년 복개도로 위에 자생한 노점으로 30년 넘게 재래시장 형태로 운영되어 오다가 2021년 서울시 태릉시장 특화 거리 조성 사업으로 시장 환경이 개선되었다. 태릉시장주상복합빌딩(태능에셈빌) 2층까지는 상가들이 입점해 있고 아파트 앞 노점들은 서울시 이동형 가게 모양으로 변화해 대로변에 직선으로 길게 늘어서 있다. 태릉시장 태릉 엔터피아로도 불린다.,점포별 상이,점포별 상이,,쇼핑
영일시장,서울특별시 영등포구 문래로30길 27 (문래동3가),37.5162531419,126.9007600806,서울 영등포구 문래동에 있는 영일시장은 농산물에 특화된 골목형 전통시장이다. 농산물에 특화된 시장이지만 생선 육류 건어물 식료품 등 일반 시장에서 살 수 있는 물건들도 판매한다. 2007년도 노점상 철거로 규모가 줄어들었으나 지금도 인근 식당과 음식점 슈퍼 전통시장의 상인들이 도매로 물건을 구입해 간다. 새벽 12시부터 4시 사이가 시장이 가장 활발하게 움직이는 시간이고 소매로도 판매한다. 오후 4시가 지나면 문 닫는 점포들도 많다. 지하철 2호선 문래역 6번 출구에서 약 500m 1호선 영등포역 6번 출구 약 600m 거리에 있다.,02:00~18:00 (점포별 상이),점포별 상이,,쇼핑
10꼬르소꼬모 청담점,서울특별시 강남구 압구정로 416 (청담동),37.5269822119,127.0424190965,서울 강남구 압구정에 위치한 10꼬르소꼬모 청담점은 카페와 의류 및 생필품을 판매하는 편집숍을 겸하고 있는 곳이다. 건물 지하 1층에 있는 카페는 브런치 및 디저트 메뉴도 인기 있지만 멋진 인테리어로도 유명하다. 1층은 잡지 캔들 디퓨저 주방용품 등 인테리어 소품을 판매하고 있으며 2층은 의류 3층은 잡화를 판매하고 있어 분위기 좋은 곳에서 식사와 더불어 쇼핑도 할 수 있는 공간으로 인기 있다.,11:00~20:00,연중무휴,,쇼핑
신성종합시장,서울특별시 광진구 용마산로 50 (중곡동),37.5581405258,127.088077944,서울 광진구 중곡사거리에 있는 신성종합시장은 2차선 도로를 따라 형성되어 있는 소규모 골목시장이다. 시장 규모는 크지 않지만 정육점 과일가게 생선가게 반찬가게 등 다양한 식자재를 판매하고 있으며 칼국수 순대국밥 닭강정집 만둣집 등 다양한 먹거리를 판매하고 있다.,08:00~22:00,점포별 상이,,쇼핑
덕분애,서울특별시 서초구 효령로 276 (서초동) 203호,37.4844366508,127.0144700672,서울 강남에 자리한 제로웨이스트 리필스테이션으로 ‘최초로 발생하는 플라스틱을 줄여보자’는 생각에서 출발했다고 한다. 덕분애에서 리필 가능한 제품은 주방세제부터 바디워시 세탁세제까지 다양하다. 리필 구매를 위해선 미리 용기를 준비해야 한다. 저울에 준비한 용기를 올려 무게를 잰 후 필요한 만큼 적정량을 담고 다시 무게를 재면 끝. 이렇게 구매하는 리필제품은 불필요한 플라스틱 용기와 포장 비닐을 사용하지 않을뿐더러 가격도 저렴해서 환경과 경제를 모두 챙기는 현명한 소비다. 욕실용품 중 소모품인 칫솔과 치약을 대나무 칫솔이나 고체 치약으로 대체해 사용하는 등 일상에서 제로웨이스트의 삶을 비교적 쉽게 시작할 방법도 추천해 준다.,11:00~20:00,매주 일요일 / 설·추석 연휴 / 법정 공휴일,,쇼핑
독립문영천시장,서울특별시 서대문구 통일로 189 1 (영천동),37.5703923889,126.9618752046,1960년대 서대문구 독립문 인근에 형성된 영천시장은 과거 서울을 대표하는 떡 도매시장으로 유명했던 50년 넘는 역사를 지닌 전통시장이다. 주택가 인근에 있어 인근 주민들이 애용하는 서울의 대표적인 골목형 전통시장으로 서울시는 서대문구 영천시장길 38일대를 2021년 '7월의 미래유산'으로 선정했다. 약 198개의 점포가 운영 중인 대규모 전통시장으로 점포의 40%가 떡볶이와 꽈배기 등 다양한 먹거리를 판매하고 있는 것으로 유명하다.,07:00 ~ 21:00 (점포별 상이),연중무휴 (점포별 상이),,쇼핑
어뮤즈 한남 쇼룸,서울특별시 용산구 이태원로55가길 49 3층,37.5364108974,126.9992783141,어뮤즈 한남 쇼룸은 온·오프라인을 아우르는 옴니채널로서 비건 뷰티 브랜드 이미지를 강화하고 어뮤즈의 다양한 제품과 브랜딩을 직접 체험할 수 있는 첫 오프라인 쇼룸이다. 어뮤즈만의 비건 뷰티에 대한 신선한 경험을 제안하고 균형 잡힌 삶의 실천을 위한 브랜드 메시지를 전달하며 새로운 라이프스타일 공간이다. 쇼룸은 어뮤즈의 이야기와 취향이 담긴 ‘전시 공간’ 일상 속 여유를 풍요롭게 되찾을 ‘비건 공간’ 제품을 충분히 경험하고 느껴볼 수 있는 ‘테스터 공간’ 등으로 구성됐으며 곳곳에서 어뮤즈 만의 색채와 감성을 담은 비건 뷰티 큐레이션을 경험할 수 있다.,11:00~20:00,연중무휴,입점브랜드:어뮤즈,쇼핑
T1 HQ SHOP,서울특별시 강남구 선릉로 627 (논현동),37.512511677,127.0428028051,e스포츠를 즐기는 롤 구단 T1 팬들을 위한 공간이자 굿즈 숍이다. 의류 의자 향수 슬리퍼 문구류 등 게임 관련한 품목과 선수들의 얼굴과 캐릭터가 새겨진 다양한 물품들도 판매하고 있다. T1 사옥에 들어서면 전설적인 프로게이머 페이커의 등신대와 피규어가 입구에 있고 역대 롤 관련 대회에서 획득한 우승 트로피가 전시되어 있다. 또한 매장 한편에 선수들이 경기하는 곳처럼 꾸며진 책상과 모니터가 있는 포토존이 있어 인증샷을 남길 수 있다. T1매장은 선수들과 같은 유니폼에 자신의 이름을 새기며 T1을 더욱 가까이에서 즐길 수 있는 곳이다.,12:00~20:00,연중무휴,,쇼핑
롯데백화점 건대스타시티점,서울특별시 광진구 능동로 92 롯데백화점,37.5390535504,127.0712300203,매일 새로움과 즐거운 경험을 제공하는 롯데백화점 건대스타시티점은 즐길 거리가 가득한 힙플레이스이다. 지하 1층 교보문고 5층 캉골 디스커버리 7층 나이키 8층 유니클로 9층 한샘리하우스 등 다양한 브랜드를 만나볼 수 있다. 그리고 식당도 많이 자리하고 있어 데이트 장소로도 안성맞춤인 곳이다.,주중 10:30~20:00 주말 10:30~20:30,1월 1일 / 설·추석 연휴 / 월 1회 비정기 휴무,,쇼핑
메종쥬 성수 부티끄,서울특별시 성동구 서울숲4길 28 14,37.5467688264,127.0437545254,메종쥬 성수 부티끄의 향기는 기존 틀을 유연하게 해석한 트렌디 하면서도 탁월한 품질을 갖추고 있다. 생동감 넘치는 디자인에 다채로운 컬러를 입힌 빈티지 팝아트 감성을 엿볼 수 있으며 새로운 세대의 대표적인 프랑스 마스터 조향사와의 창의적인 콜라보 제품들을 만나볼 수 있다. 메종쥬는 흔히 경험할 수 없는 독특한 향수를 찾는 사람들을 위해 디자인되었다. 다양한 보틀 사이즈의 향수가 준비되어 있어 용도에 따라 구매 및 시향이 가능하다.,10:30~17:30,매주 일요일,입점브랜드:메종쥬 퍼퓸,쇼핑
롯데백화점 김포공항점,서울특별시 강서구 하늘길 38 (방화동),19.69442748,117.9925662504,매일 새로움과 즐거운 경험을 제공하는 롯데백화점 김포공항점이다. 김포공항역과 연결되어 있으며 롯데마트 롯데시네마 롯데하이마트 롯데호텔 등과 함께 위치해 있다. 다양한 F&B와 함께 편히 주차를 이용할 수 있다.,10:30~20:00,홈페이지 참조,,쇼핑
그랑핸드 서촌,서울특별시 종로구 자하문로4길 14 2,37.5772862325,126.9730406586,2014년 런칭한 국내 향수 브랜드 그랑핸드는 북촌의 작은 한옥에서 시작하여 현재는 서울의 여섯 곳에 크고 작은 오프라인 스토어와 카페 브랜드 ‘콤포타블’까지 전개하며 일상 곳곳에 향기로 자취를 남기고 있다. 적극적으로 브랜드를 전개하면서도 단 한 번도 유가 광고를 하지 않고 7년 동안 온라인 판매를 하지 않은 뚝심은 이제 그랑핸드를 상징하는 브랜드 철학이 되었다. 서촌점은 세 번째 스토어로 경복궁과 각종 미술관 사이에 위치해 다양한 연령대와 국적의 고객들이 모이는 장소이다.,11:30~20:30,연중무휴,,쇼핑
손뜨개 디자인 스튜디오 단주,서울특별시 종로구 삼청로 65 4 (팔판동),37.5817330786,126.9809120374,손뜨개 디자인 스튜디오 ‘단주’는 니트 디자이너의 창작 디자인 키트와 여러 나라로부터 수입한 손뜨개실을 판매하는 핸드니팅디자인스튜디오이다. 각종 크래프트소품과 자체제작 뜨개도구 특별한 손뜨개 부자재들을 판매하고 있다. 손뜨개 디자이너들의 독창적인 작품들도 전시 판매하고 있다. 1층 매장에서 구매한 재료들로 2층 니트카페에서 따뜻한 차와 함께 영어로 손뜨개 수업 1회 체험도 가능하다.,10:00~19:00 휴게시간 13:00~14:00,연중무휴,,쇼핑
그래픽,서울특별시 용산구 회나무로39길 33 (이태원동),37.5409852642,126.9936064792,그래픽은 만화를 사랑하는 사람들을 위해 만들어진 곳으로 만화책과 그래픽노블 아트북만을 취급하는 서점이다. 이곳은 더 많은 사람들이 만화를 좋아하고 더 깊이 파고들 수 있게 돕는 것이 목표이다. 고가의 아트북 절판된 만화 등 쉽게 접하기 어려운 책들을 포함 모든 책의 내용을 볼 수 있으며 공항 라운지처럼 편하고 쾌적한 공간으로 구성되어 있다. 그리고 좋은 작품들을 발굴하고 소개함으로써 만화가 소설이나 영화보다 낮은 형태의 예술이 아니라는 것을 많은 사람들에게 공유하고 있다. 그래픽은 만화책과 페어링 될 수 있는 모든 요소들도 갖추고 있다. 대형 빈티지 오디오에서 흘러나오는 엄선된 플레이리스트와 성인들을 위한 맥주 칵테일 위스키 와인 등 다양한 주류 겸비하고 있다. 만화를 좋아하는 사람들에게 그래픽이 행복하고 신나는 곳이 되길 지향한다. 입장권 20 000원 (성인만 출입 가능),평일 13:00~23:00 주말 및 공휴일 11:00~23:00,매주 월요일,: :,쇼핑
바니스튜디오 안경 명동역점,서울특별시 중구 명동8가길 21 (충무로2가),37.5619326982,126.9862787758,바니스튜디오는 젊은 세대에게 적합한 새로운 브랜드로 고품질의 안경과 컬러 콘택트렌즈를 보유하고 있다. 바니스튜디오의 안경원들은 영어 중국어 일본어를 구사할 수 있어 통역할 수 있는 직원이 상주한다. 바니스튜디오와 렌즈타운의 컬래버레이션은 매우 인기 있는 컬러 콘택트렌즈이다. 500가지 이상의 콘택트렌즈를 보유하고 있다. 서울 시내 호텔까지 배송도 가능하다. 또한 외국인이 세금 환급 혜택을 더 많이 받을 수 있다. 바니스튜디오에서는 15분 안에 처방 안경을 만들 수 있다. 또한 무료 커피와 스낵을 제공하는 대기 라운지 바도 있다.,10:30~22:30,연중무휴,: 입점브랜드:페이크미 / 클릭클락 / 레쉬 / 듀세 / 프리키버니 / 렌즈타운 등,쇼핑
"심리편집샵, 서로",서울특별시 영등포구 양평로22길 4 (양평동4가),37.5381810356,126.8943739341,심리편집샵 서로는 ‘나 타인 관계’에 대한 질문을 던지고 서로 속에서 자신을 발견하는 심리 콘텐츠 기반 독립서점이다. “나는 왜 이럴까? 저 사람은 왜 이럴까”에 대한 고민을 함께 풀고자 심리학 서적 심리 워크북 등을 큐레이팅하며 함께 고민에 대해서 이야기하는 커뮤니티 모임을 운영한다. 대표적인 모임은 ‘사랑의 이해’ ‘불안의 이해’가 있다. 모임에서는 건강한 관계를 위해 거리감 있는 깊은 관계를 지향하며 나이 이름 직업 등의 배경을 밝히지 않고 오직 본인이 정한 닉네임으로 관계를 맺는다. 모르는 사람과 블라인드 편지를 나누며 누군가에게는 새로운 사람을 만나는 설렘을 누군가에게는 주변에 터놓기 힘든 고민을 나누는 따듯함을 느낄 수 있다. 또한 시간제 사용권을 통하여 매장에서 책을 읽거나 글을 쓰고 심리워크북을 해보며 몰입의 시간을 즐길 수 있다. 공허하고 의미를 잃기 쉬운 요즘 다양한 명사 작가 철학가 등을 섭외하여 서로의 가치에 대한 강연 팝업 스토어를 연다.,수요일~토요일 15:00~20:00,매주 일요일~화요일,: 입점브랜드: 체험안내:서로 편지 서비스,쇼핑
엠플레이그라운드 홍대본점 (Tax Refund Shop),서울특별시 마포구 어울마당로 94 (서교동),37.5533880976,126.9221154207,파란색 컨테이너가 시그니처인 캐주얼 편집숍 브랜드이다. 최신 트렌드를 반영한 의류 디자인과 홍대 특유의 스트릿 감성이 느껴지는 인테리어 및 외관으로 방문 고객들이 브랜드의 독특한 스타일을 직관적으로 경험할 수 있도록 구성되어 있다. 시즌별로 다양한 패션 아이템을 선보이며 특히 10대에서 30대까지의 젊은 소비자들을 겨냥한 제품군을 강조하고 있다. 트렌디한 의류뿐만 아니라 액세서리 잡화 등 다양한 상품을 판매하고 있다.,[월요일~목요일 / 일요일] 10:00~24:00 [금요일~토요일] 10:00~01:00,연중무휴,: :,쇼핑
동아완구,서울특별시 종로구 종로52길 5 (창신동),37.5719181289,127.0129788379,창신동 완구거리에 자리 잡고 있는 동아완구는 완구 봉제 인형 각종 캐릭터 제품을 판매하고 있는 전문 완구매장이다. 넓은 매장 규모와 다양한 종류의 완구를 배치하고 있어 아이들에게 인기가 높다. 가지각색의 완구들과 영유아들을 위한 완구까지 다양한 종류의 제품들이 판매되고 있다. 다양한 완구들을 정상가격보다 저렴한 가격에 판매하고 있다는 것이 큰 장점이다. 동대문역 1호선 4번 출구 입구에 자리하고 있어 접근성이 좋다.,09:00~18:00,연중무휴,: 강습안내:,쇼핑
헤트라스 안국,서울특별시 종로구 창덕궁1길 42 (계동) 1층,37.5794556725,126.9868810023,라이프 스타일 브랜드 헤트라스는 국내 디퓨저 브랜드이다. 헤트라스의 디퓨저 제품은 한국을 여행하는 동안 트렌디한 편집샵 인타그래머블한 카페 호텔 레스토랑 등에서 손쉽게 마주칠 수 있다. 헤트라스 안국 스토어에서는 고급스럽지만 합리적인 가격대의 다양한 프래그런스 제품들을 만나 볼 수 있다. 기념품이나 선물을 고려한다면 핸드메이드 퍼퓸 핸드크림 등의 제품을 추천한다. 데이트 장소 여행 관광지로 유명한 안국역 북촌 한옥 마을 인근에 위치해 있어 한국적인 정취를 즐기기 위해 방문한 관광객들의 관심을 받고 있다.,11:00~20:00,연중무휴,: :,쇼핑
스페이스 도산,서울특별시 강남구 압구정로46길 38 (신사동),37.5262099619,127.0358919354,스페이스 도산은 에이피알이 서울 강남구 신사동에 오픈한 체험형 플래그십 스토어이다. ‘미지의 행성들을 탐사하는 우주정거장’이라는 콘셉트로 설계되어 우주 공간에서 에이피알의 여러 브랜드를 체험할 수 있도록 기획되었다. 우주정거장을 연상시키는 에어로크 연출과 LED 벽면을 통해 우주 분위기를 조성했으며 각 층마다 브랜드의 개성과 특징을 행성으로 표현했다. 지하 1층에는 널디 매장 1 2층은 포토존 3층은 메디큐브 4층은 포맨트 5층은 루프탑 카페로 구성되어 있다. 이 공간은 단순한 오프라인 매장을 넘어 에이피알 브랜드의 메시지를 전달하는 체험형 콘텐츠 공간으로 기획되었다.,11:00~20:00,연중무휴 공식인스타그램을 통해 별도 공지,입점브랜드:널디 / 메디큐브 / 포맨트,쇼핑
테크노마트 강변점,서울특별시 광진구 광나루로56길 85,37.5355988375,127.0957612191,테크노마트는 전기 전자 전문매장이 2층에서 8층까지 총 1 100여의 매장이 자리 잡고 있으며 쇼핑몰 할인상점 등이 연계되어 있는 대형 쇼핑센터이다. 이곳에서는 전자 전기 제품 상점을 비롯하여 컴퓨터 음향기기 이동통신기기 등을 시중보다 저렴한 가격으로 구입할 수 있으며 A/S도 확실하다. 지하 1 2층과 1층에는 의류 잡화 가정생활용품 식품 등을 저렴하게 구입할 수 있다. 또한 10층에 영화관이 자리하고 있어 쇼핑과 함께 문화생활도 즐길 수 있다. 동서울 종합 터미널과 인접해 있어 교통이 매우 편리하고 지하 입구에는 안내원이 있어 간단한 외국어 서비스도 받을 수 있다.,"점포별, 월별 상이하므로 홈페이지 참조 요망",점포별 상이하므로 홈페이지 참조 요망,,쇼핑
문정동로데오거리,서울특별시 송파구 동남로4길 10,37.4889436498,127.1238710967,문정동로데오거리는 올림픽훼밀리타운 사거리에서부터 문정근린공원까지 총거리 995m에 이르는 길로 200여 개의 브랜드 상설 할인 매장이 밀집해 있는 쇼핑거리이다. 문정동 거리는 한국의 대표적인 할인 매장 1번지로 중앙도로를 중심으로 양옆으로 스포츠 캐주얼 신발에서부터 남녀 정장 골프웨어를 파는 상점이 자리 잡고 있어 다양한 연령대의 소비자가 방문하며 외국에서도 유명한 브랜드 상점이 많기 때문에 국내 관광객뿐만 아니라 외국인 관광객도 찾는 코스가 되었다. 쇼핑 편의를 위해 공영주차장과 외국인 관광객 전용 주차장이 설치되어 있어 쇼핑하기에 용이하다.,상점마다 다름,상점마다 상이,,쇼핑
가든파이브라이프(Garden5life),서울특별시 송파구 충민로 66,37.4770061292,127.1229354097,가든파이브라이프(Garden5life)는 단순한 쇼핑공간이 아니라 거대한 문화복합단지이다. 쇼핑 문화 오락 휴식 등 원하는 모든 것을 동시에 즐길 수 있으며 패션 생활용품 전자제품 산업 제품 공구 소재까지 필요한 모든 것을 한 번에 만날 수 있는 곳이다. 생산과 판매 도매와 소매가 한 곳에서 이뤄지는 진정한 원스톱 문화쇼핑을 즐거움을 모두 실현하는 가든파이브는 교통이 복잡한 남대문 동대문 상권의 한계를 뛰어넘어 러시아 동남아 남미 등 세계 고객까지 끌어들인다는 비전으로 미래형 문화특구의 청사진을 실현한다.,월요일~목요일 10:30~21:00 금요일~일요일 10:30~22:00,연중무휴,,쇼핑
타임스퀘어,서울특별시 영등포구 영중로 15 (영등포동4가),37.5178335971,126.905381837,타임스퀘어(Times square)는 2009년 9월 16일 서울시 영등포에 오픈한 국내 최대 규모의 복합 쇼핑몰이다. 상업∙업무∙문화∙레저가 어우러진 도시형 엔터테인먼트 문화공간(UELC∙Urban Entertailing Lifestyle Center)으로 메리어트호텔 오피스 2개 동 신세계백화점 CGV 멀티플렉스 이마트 교보문고 아모리스 글로벌 SPA 브랜드 자라와 등이 입점해 있다. 초대형 복합 쇼핑몰인 타임스퀘어는 오픈 이후 8개월간 방문객 4 900만 명 매출 6 500억 원을 기록하면서 서울 서남부권의 랜드마크로 자리 잡았다. 지상 1~5층의 아트리움과 패션몰 외벽을 대형 통유리로 처리해 24시간 자연 채광을 받으며 쾌적한 쇼핑을 즐길 수 있는 것이 특징이다. 또한 완벽한 휴식과 여유를 위해 분수 정원과 테라스 공간까지 마련되어 있다.,10:30~22:00,연중무휴,제조자 이름: 입점브랜드:무신사스탠다드 / 유니클로 / 자라 / 무인양품 / 교보문고 등,쇼핑
눈스퀘어,서울특별시 중구 명동길 14 (명동2가),37.5634685712,126.98291515,다양한 국·내외 패션 F&B 라이프스타일과 엔터테인먼트가 하나로 어우러진 공간으로 명동을 상징하는 새로운 아이콘이다. ‘눈(snow)’과 같이 희고 아름다운 결정체를 가지고 있는 쇼핑몰의 외관을 의미하는 것으로 인테리어 또한 한국 최초로 외부 에스컬레이터를 설치해 편리하게 구성하였다. 눈스퀘어에는 다양한 국내·외 브랜드들이 즐비해 있다. 이외에도 다양한 먹을거리와 CGV 영화관 등의 문화공간이 함께 마련되어 있어 패셔니스트들의 흥미를 더할 것이다.,11:00~22:00,연중무휴,제조자 이름: 입점브랜드:나이키 / 자라 / 에이랜드 / 에비수 / CHARLES & KEITH / 핸드메이드 리퍼블릭,쇼핑
한국공예관,서울특별시 종로구 인사동길 33 (관훈동),37.5735368921,126.9855285155,한국공예관에서는 우리 문화와 정성이 가득 담긴 전통공예품을 만날 수 있다. 인사동과 부산 김포공항 국립전주박물관 민속촌 그리고 인터넷 사이트에서 역 공예작가들의 작품을 전시·판매하고 있다. 인사동 판매장은 100여 종에 달하는 상품을 전시 판매하며 직지와 공예비엔날레에 대한 정보를 얻을 수 있다. 주 판매 상품은 나전칠기 한지공예 섬유공예 민예품 은칠보 등 다양한 전통공예품이 있다.,09:00~21:00,연중무휴,제조자 이름: 장애인 편의시설: 구입방법안내:,쇼핑
아이닥안경,서울특별시 중구 명동3길 6,37.563893534,126.9836150743,아이닥안경은 과학적인 사고로 고객님의 아이웨어를 컨설팅하기 위해 국내 최고의 검안 및 계측 시스템을 운영하고 있다. 일본 아이메트릭사 제휴 안경원으로 고도근시 안경 누진 다초점 안경 특수 직종에 있는 사람들을 위한 기능성 안경 축구 야구 스킨 스쿠버 등의 일반인용 특수 안경 및 고글을 전문 판매한다. 한국에서 제품 주문 시 해외 배송 가능하며 인터넷을 통해 주문 제작이 가능하다. 또한 독일 칼자이스 안경 렌즈 및 일본 호야렌즈 도카이 안경 렌즈 세이코 렌즈 펜탁스렌즈 등 명품 안경렌즈를 취급한다.,월요일~금요일 10:00~20:00 토요일~일요일 10:00~19:00,연중무휴,제조자 이름: 입점브랜드:,쇼핑
이새,서울특별시 종로구 인사동길 30 1 (관훈동),37.5734702409,126.985950701,이새는 화학성분이 들어가지 않은 원단을 사용하여 자연주의 브랜드라는 특징으로 중장년층을 위주로 한 친환경 염색 의류이다. 천연 소재와 천연 염색 한복과 양장이 조화를 이룬 몸에 편안한 실루엣으로 디자인된 옷을 주로 판매한다. 의류뿐만 아니라 가방 신반 모자 등도 천연 소재로 만들어 판매하고 있으며 침구와 앞치마 등의 라이프 용품도 있다. 인사동에 오프라인 매장이 위치해 있으며 온라인으로도 구입할 수 있다.,전화 문의,전화 문의,,쇼핑
테이크어스트릿(Take a street),서울특별시 마포구 양화로 45 1층 106호,37.5511159887,126.913699585,브랜드 셀렉트샵 테이크어스트릿(Take a street)은 다양한 아이템을 조합하는 것에 그치는 것이 아니라 매 시즌 상품 구성의 콘셉트를 정해 이야기가 있는 숍을 보여주고자 한다. 감각적인 브랜드만을 선별하여 신발 모자 가방 시계 티셔츠 등의 잡화 및 액세서리 품목을 취급하며 각 아이템으로 새로운 스타일을 연출할 수 있도록 코디 서비스도 지원한다.,12:00~21:00,매주 일요일,제조자 이름: 입점브랜드:,쇼핑
누죤패션몰,서울특별시 중구 을지로45길 62,37.5669492622,127.0130011984,패션의 메카 동대문에 위치한 누죤패션몰은 고객과 상인을 우선시하는 서비스정신을 바탕으로 여성의류부터 남성의류 구두 가방 패션잡화 등 다양한 품목을 취급하고 있다. 늘 앞서가는 유행을 선보이며 전국 각지의 의류사업자 온라인 쇼핑몰 운영자 패션업계 종사자 연예인 일반 고객 등 많은 사람들이 방문하고 있으며 최근에는 외국인 관광객들이 많이 찾는 곳이기도 하다. 또한 넓은 주차시설을 보유하고 있어 쇼핑에 어려움이 없으며 정기적으로 이벤트와 행사가 진행되어 찾는 즐거움을 더한다.,20:00~06:00,매주 금요일 06:00~일요일 20:00 / 설·추석 연휴,구입방법안내:직접 방문 구입 가능,쇼핑
한순례한복침구,서울특별시 강남구 압구정로 164,37.5265292213,127.0276343445,색상부터 디자인까지 자체 제작하는 한복 맞춤 전문점으로 전통 소품 외에 침구를 포함한 한국 실크 취급 전문점이다. 오직 한 사람만을 위한 작품을 제작·판매하고 있다. 강렬하지 않은 중간색 계열과 화려한 문양을 사용하지 않고 단아하며 편안하게 입을 수 있다. 이 매장에서 제작되는 한복은 손명주(손으로 직접 만든 명주 원단) 등 수작업을 통해 만들어진 고급 소재를 사용하며 천연 염색과 일반 염색의 원단을 선택할 수 있다.,10:00~19:30,매주 월요일,,쇼핑
모이라이 (moirai),서울특별시 서대문구 이화여대길 52 33,37.5594600212,126.9448520663,모이라이 (moirai)는 정장 안에 받쳐 입거나 시크니 진 또는 레깅스와 매치해서 입는 레이스 의상이 대표 상품이다. 레이스를 좋아하는 일본인 관광객에 인기가 많으며 구매 상품에 대하여 무기한 A/S를 한다는 것이 특징이다. 직접 디자인하여 독특한 제품을 구매 가능하며 의상과 어울리는 액세서리 또한 코디 서비스를 받을 수 있다.,12:00~22:00,연중무휴,구입방법안내:직접 방문 구입 가능,쇼핑
